{"list":{
"title": "Fashion",
"category": "Shopping",
"description": "The editors of T Magazine and the Styles section share some of their favorite places to shop for clothes and accessories in New York.",
"updated": "2010-11-30T09:10:15-0500",
"items": [
{
"id": "8-43",
"archived": false,
"title": "A.P.C.",
"created": "2010-11-18T07:46:19-0500",
"updated": "2010-11-22T07:05:03-0500",
"description": "Workaday European basics and slim fitting jeans \u2014 and a solid, rotating selection of music \u2014 are the staples of this SoHo favorite.",
"author": "T Magazine",
"top-info": null,
"extra-info": "Women's, Men's",
"ticket-info": null,
"category": null,
"addresses": [
{
"venue": "A.P.C.",
"foursquare-venue-id": null,
"website": "usonline.apc.fr",
"phonenumber": "(212) 966-9685",
"crossstreet": "(between Prince and Spring Streets)",
"neighborhood": "SoHo",
"street": "131 Mercer Street",
"city": "New York",
"zip": "10012",
"state": "NY",
"latitude": "40.724363",
"longitude": "-73.99887"	}
],
"images":
null
}
,	{
"id": "8-44",
"archived": false,
"title": "Against Nature",
"created": "2010-11-18T07:47:44-0500",
"updated": "2010-11-22T07:05:03-0500",
"description": "High-end preppy clothes for modern aesthetes in a Lower East Side country club atmosphere.",
"author": "T Magazine",
"top-info": null,
"extra-info": "Men's",
"ticket-info": null,
"category": null,
"addresses": [
{
"venue": "Against Nature",
"foursquare-venue-id": null,
"website": "againstnaturenyc.com",
"phonenumber": "(212) 228-4552",
"crossstreet": "(between Rivington and Delancey Streets)",
"neighborhood": "Lower East Side",
"street": "159 Chrystie Street",
"city": "New York",
"zip": "10002",
"state": "NY",
"latitude": "40.720555",
"longitude": "-73.993014"	}
],
"images":
null
}
,	{
"id": "8-45",
"archived": false,
"title": "Alife Rivington Club",
"created": "2010-11-18T07:48:43-0500",
"updated": "2010-11-22T07:05:03-0500",
"description": "This celebrity-favored sneaker-freaker boutique sells exclusive and hard-to-find kicks in a swanky space. With footwear this high-end, there might as well be a red carpet at the door.",
"author": "T Magazine",
"top-info": null,
"extra-info": "Men's",
"ticket-info": null,
"category": null,
"addresses": [
{
"venue": "Alife Rivington Club",
"foursquare-venue-id": null,
"website": "rivingtonclub.com",
"phonenumber": "(212) 375-8128",
"crossstreet": "(between Clinton and Suffolk Streets)",
"neighborhood": "Lower East Side",
"street": "158 Rivington Street",
"city": "New York",
"zip": "10002",
"state": "NY",
"latitude": "40.719206",
"longitude": "-73.985332"	}
],
"images":
null
}
,	{
"id": "8-46",
"archived": false,
"title": "Aloha Rag",
"created": "2010-11-18T07:49:04-0500",
"updated": "2010-11-22T07:05:03-0500",
"description": "Born as a vintage shop in Hawaii in 1991, the \u00FCber chic Aloha Rag of today sells neither the bland fashions nor the Tiki aesthetic its name evokes. In addition to its house brand of meticulously detailed separates by the owner, Tatsugo Yoda, there is a sleek, cutting edge and well-edited selection of clothes, accessories and shoes by designers such as Alexander Wang, Phillip Lim, Balenciaga, Lanvin and Jil Sander.",
"author": "Alexis Mainland",
"top-info": null,
"extra-info": "Women's, Men's",
"ticket-info": null,
"category": null,
"addresses": [
{
"venue": "Aloha Rag",
"foursquare-venue-id": null,
"website": "aloharag.com",
"phonenumber": "(212) 925-0882",
"crossstreet": "(near Spring Street)",
"neighborhood": "SoHo",
"street": "505 Greenwich Street",
"city": "New York",
"zip": "10013",
"state": "NY",
"latitude": "40.725635",
"longitude": "-74.008735"	}
],
"images":
null
}
,	{
"id": "8-47",
"archived": false,
"title": "Anna",
"created": "2010-11-18T07:49:30-0500",
"updated": "2010-11-22T07:05:03-0500",
"description": "Pick up one of Kathy Kemp\u2019s exquisite wrap dresses at this unassuming East Village boutique.",
"author": "T Magazine",
"top-info": null,
"extra-info": "Women's",
"ticket-info": null,
"category": null,
"addresses": [
{
"venue": "Anna",
"foursquare-venue-id": null,
"website": "annanyc.com",
"phonenumber": "(212) 358-0195",
"crossstreet": "(at Avenue A)",
"neighborhood": "East Village",
"street": "150 East Third Street",
"city": "New York",
"zip": "10009",
"state": "NY",
"latitude": "40.723601",
"longitude": "-73.985174"	}
],
"images":
null
}
,	{
"id": "8-48",
"archived": false,
"title": "Atelier New York",
"created": "2010-11-18T07:49:51-0500",
"updated": "2010-11-22T07:05:03-0500",
"description": "Arguably the best selection of avant-garde men\u2019s wear in New York. Where else can you purchase Ann Demeulemeester, Boris Bidjan Saberi and Yohji Yamamoto under one roof?",
"author": "T Magazine",
"top-info": null,
"extra-info": "Men's",
"ticket-info": null,
"category": null,
"addresses": [
{
"venue": "Atelier New York",
"foursquare-venue-id": null,
"website": "ateliernewyork.com",
"phonenumber": "(212) 941-8435",
"crossstreet": "(at Spring Street)",
"neighborhood": "SoHo",
"street": "304 Hudson Street",
"city": "New York",
"zip": "10013",
"state": "NY",
"latitude": "40.726042",
"longitude": "-74.007436"	}
],
"images":
null
}
,	{
"id": "8-49",
"archived": false,
"title": "Bellhaus",
"created": "2010-11-18T07:50:18-0500",
"updated": "2010-11-22T07:05:03-0500",
"description": "True to its Hamptons beginnings, Bond Street\u2019s new store has an airy, beachy feel and sells clothing, shoes and accessories for men and women from designers like Prabal Gurung and Sophie Theallet.",
"author": "T Magazine",
"top-info": null,
"extra-info": "Women's, Men's",
"ticket-info": null,
"category": null,
"addresses": [
{
"venue": "Bellhaus",
"foursquare-venue-id": null,
"website": "bellhaus.net",
"phonenumber": "(212) 505-0057",
"crossstreet": "(near Bowery)",
"neighborhood": "NoHo",
"street": "57 Bond Street",
"city": "New York",
"zip": "10012",
"state": "NY",
"latitude": "40.725765",
"longitude": "-73.992561"	}
],
"images":
null
}
,	{
"id": "8-50",
"archived": false,
"title": "Billy Reid",
"created": "2010-11-18T07:43:00-0500",
"updated": "2010-11-22T07:05:03-0500",
"description": "Stylish neo-traditional clothes and thrifted bibelots share pride of place at this temple to American style.",
"author": "T Magazine",
"top-info": null,
"extra-info": "Men's",
"ticket-info": null,
"category": null,
"addresses": [
{
"venue": "Billy Reid",
"foursquare-venue-id": null,
"website": "billyreid.com",
"phonenumber": "(212) 598-9355",
"crossstreet": "(at Bowery)",
"neighborhood": "NoHo",
"street": "54 Bond Street",
"city": "New York",
"zip": "10012",
"state": "NY",
"latitude": "40.72579",
"longitude": "-73.992314"	}
],
"images":
null
}
,	{
"id": "8-51",
"archived": false,
"title": "Bird",
"created": "2010-11-18T07:51:01-0500",
"updated": "2010-11-22T07:05:03-0500",
"description": "Synonymous with unstudied, youthful sophistication, this mini-chain has taken flight over chic Brooklyn neighborhoods, selling cult and emerging labels like Isabel Marant, Vena Cava and 3.1 Phillip Lim.",
"author": "T Magazine",
"top-info": null,
"extra-info": "Women's",
"ticket-info": null,
"category": null,
"addresses": [
{
"venue": "Bird",
"foursquare-venue-id": null,
"website": "shopbird.com",
"phonenumber": "(718) 797-3774",
"crossstreet": "(at Butler Street)",
"neighborhood": "Cobble Hill",
"street": "220 Smith Street",
"city": "Brooklyn",
"zip": "11201",
"state": "NY",
"latitude": "40.684306",
"longitude": "-73.992212"	}
,{
"venue": "Bird",
"foursquare-venue-id": null,
"website": null,
"phonenumber": "(718) 768-4940",
"crossstreet": "(between Second and Third Streets)",
"neighborhood": "Park Slope North",
"street": "316 Fifth Avenue",
"city": "Brooklyn",
"zip":	"11215",
"state": "NY",
"latitude": "40.673123",
"longitude": "-73.983146"	}
,{
"venue": "Bird",
"foursquare-venue-id": null,
"website": null,
"phonenumber": "(718) 388-1655",
"crossstreet": "(between Bedford and Driggs Avenues)",
"neighborhood": "Williamsburg",
"street": "203 Grand Street",
"city": "Brooklyn",
"zip":	"11211",
"state": "NY",
"latitude": "40.714154",
"longitude": "-73.960204"	}
],
"images":
null
}
,	{
"id": "8-82",
"archived": false,
"title": "The Brooklyn Circus",
"created": "2010-11-18T07:57:35-0500",
"updated": "2010-11-29T17:42:22-0500",
"description": "This Brooklyn boutique is a shopping playground for urban dandies, with preppy, vintage-inspired pieces like letter jackets, button-down shirts, bow ties, jeans and duffle bags. The tailored daywear is a canvas for accessorizing.",
"author": "Simone S. Oliver",
"top-info": null,
"extra-info": "Men's",
"ticket-info": null,
"category": null,
"addresses": [
{
"venue": "The Brooklyn Circus",
"foursquare-venue-id": null,
"website": "thebkcircus.com",
"phonenumber": "(718) 858-0919",
"crossstreet": "(at Bergen Street)",
"neighborhood": "Boerum Hill",
"street": "150 Nevins Street",
"city": "Brooklyn",
"zip": "11217",
"state": "NY",
"latitude": "40.684162",
"longitude": "-73.984058"	}
],
"images":
null
}
,	{
"id": "8-52",
"archived": false,
"title": "Castor & Pollux",
"created": "2010-11-18T07:51:15-0500",
"updated": "2010-11-22T07:05:04-0500",
"description": "With a name inspired by mythological twins, this West Village boutique has a dualism of its own: striking clothing and accessories.",
"author": "T Magazine",
"top-info": null,
"extra-info": "Women's",
"ticket-info": null,
"category": null,
"addresses": [
{
"venue": "Castor & Pollux",
"foursquare-venue-id": null,
"website": "castorandpolluxstore.com",
"phonenumber": "(212) 645-6572",
"crossstreet": "(between Hudson and Bleecker Streets)",
"neighborhood": "West Village",
"street": "238 West 10th Street",
"city": "New York",
"zip": "10014",
"state": "NY",
"latitude": "40.733845",
"longitude": "-74.005586"	}
],
"images":
null
}
,	{
"id": "8-53",
"archived": false,
"title": "Collecther",
"created": "2010-11-18T07:51:45-0500",
"updated": "2010-11-22T10:57:29-0500",
"description": "This Bed-Stuy gem is part vintage store, part neighborhood hangout and part inspiration bank. The owner, Shana Jackson, offers a carefully curated mix of high- and low-end items that you won't find at mainstream stores. You'll find familiar labels like Kate Spade, Tracy Reese or Christian Dior mixed in with grandma's wool cape with faux fur trimming \u2013 all in mint condition. Regular customers know not to mull over a piece for too long lest a more decisive shopper grabs it first.",
"author": "Simone S. Oliver",
"top-info": null,
"extra-info": "Women's",
"ticket-info": null,
"category": null,
"addresses": [
{
"venue": "Collecther",
"foursquare-venue-id": null,
"website": "collecthernews.blogspot.com",
"phonenumber": "(347) 658-7857",
"crossstreet": "(between Clifton Place and Lafayette Avenue)",
"neighborhood": "Bedford Stuyvesant",
"street": "306 Franklin Avenue",
"city": "Brooklyn",
"zip": "11238",
"state": "NY",
"latitude": "40.68886",
"longitude": "-73.957212"	}
],
"images":
null
}
,	{
"id": "8-54",
"archived": false,
"title": "Darling",
"created": "2010-11-18T07:52:00-0500",
"updated": "2010-11-22T07:05:04-0500",
"description": "Precious new and consignment dresses with a price range for every matching purse.",
"author": "T Magazine",
"top-info": null,
"extra-info": "Women's",
"ticket-info": null,
"category": null,
"addresses": [
{
"venue": "Darling",
"foursquare-venue-id": null,
"website": "darlingnyc.com",
"phonenumber": "(646) 336-6966",
"crossstreet": "(at Eighth Avenue)",
"neighborhood": "West Village",
"street": "1 Horatio Street",
"city": "New York",
"zip": "10014",
"state": "NY",
"latitude": "40.738814",
"longitude": "-74.003628"	}
],
"images":
null
}
,	{
"id": "8-55",
"archived": false,
"title": "De Vera",
"created": "2010-11-18T07:52:07-0500",
"updated": "2010-11-22T07:05:04-0500",
"description": "These two stores are a trove of surprises \u2014 the perfect place to purchase rare, antique jewelry.",
"author": "T Magazine",
"top-info": null,
"extra-info": "Women's",
"ticket-info": null,
"category": null,
"addresses": [
{
"venue": "De Vera",
"foursquare-venue-id": null,
"website": "deveraobjects.com",
"phonenumber": "(212) 625-0838",
"crossstreet": "(at Howard Street)",
"neighborhood": "SoHo",
"street": "1 Crosby Street",
"city": "New York",
"zip": "10013",
"state": "NY",
"latitude": "40.71961",
"longitude": "-74.000532"	}
,{
"venue": "De Vera",
"foursquare-venue-id": null,
"website": "evagentry.com\/consignmenthome.html",
"phonenumber": "(212) 288-2288",
"crossstreet": "(at Madison Avenue)",
"neighborhood": "Upper East Side",
"street": "26 East 81st Street",
"city": "New York",
"zip":	"10028",
"state": "NY",
"latitude": "40.777652",
"longitude": "-73.961447"	}
],
"images":
null
}
,	{
"id": "8-56",
"archived": false,
"title": "Edon Manor",
"created": "2010-11-18T07:52:18-0500",
"updated": "2010-11-22T07:05:04-0500",
"description": "Noteworthy design books share shelf space with shoes and accessories by labels like Proenza Schouler and Alexander Wang in this West Village boutique. A one-stop shop for the perfect present (and something for yourself as well).",
"author": "T Magazine",
"top-info": null,
"extra-info": "Women's",
"ticket-info": null,
"category": null,
"addresses": [
{
"venue": "Edon Manor",
"foursquare-venue-id": null,
"website": "edonmanor.com",
"phonenumber": "(212) 431-3890",
"crossstreet": "(between Beach and North Moore Streets)",
"neighborhood": "TriBeCa",
"street": "391 Greenwich Street",
"city": "New York",
"zip": "10013",
"state": "NY",
"latitude": "40.720454",
"longitude": "-74.009979"	}
],
"images":
null
}
,	{
"id": "8-57",
"archived": false,
"title": "Epaulet",
"created": "2010-11-18T07:52:36-0500",
"updated": "2010-11-22T07:05:04-0500",
"description": "You'll find a thoughtful selection of basics and accessories at this Brooklyn boutique, where the emphasis is on fabric and fit. Pay\r\nspecial attention to their limited-run collaborations with artisanal brands, like Alden shoes, as well as their own house line, which\r\nincludes selvage jeans, collared shirts, dandyish ties, and button-fly chinos that inspire cultish devotion. They've recently\r\nopened a second location on the Lower East Side.",
"author": "T Magazine",
"top-info": null,
"extra-info": "Men's",
"ticket-info": null,
"category": null,
"addresses": [
{
"venue": "Epaulet",
"foursquare-venue-id": null,
"website": "epauletshop.com",
"phonenumber": "(718) 522-3800",
"crossstreet": "(between Butler and Douglass Streets)",
"neighborhood": "Cobble Hill",
"street": "231 Smith Street",
"city": "Brooklyn",
"zip": "11231",
"state": "NY",
"latitude": "40.6839",
"longitude": "-73.9923"	}
,{
"venue": "Epaulet",
"foursquare-venue-id": null,
"website": null,
"phonenumber": "(212) 228-3626",
"crossstreet": "(between Stanton and Rivington Streets)",
"neighborhood": "Lower East Side",
"street": "144 Orchard Street",
"city": "New York",
"zip":	"10002",
"state": "NY",
"latitude": "40.72048",
"longitude": "-73.988894"	}
],
"images":
null
}
,	{
"id": "8-58",
"archived": false,
"title": "EVA New York",
"created": "2010-11-18T07:53:15-0500",
"updated": "2010-11-22T07:05:04-0500",
"description": "The black and white, minimalist interior matches the avant-garde clothing by international designers.",
"author": "T Magazine",
"top-info": null,
"extra-info": "Women's",
"ticket-info": null,
"category": null,
"addresses": [
{
"venue": "EVA New York",
"foursquare-venue-id": null,
"website": "evanewyork.net",
"phonenumber": "(212) 925-3890",
"crossstreet": "(between East Third and Fourth Streets)",
"neighborhood": "East Village",
"street": "355A Bowery",
"city": "New York",
"zip": "10003",
"state": "NY",
"latitude": "40.726765",
"longitude": "-73.991582"	}
],
"images":
null
}
,	{
"id": "8-59",
"archived": false,
"title": "Eva Gentry",
"created": "2010-11-18T07:53:28-0500",
"updated": "2010-11-23T13:44:28-0500",
"description": "Eva Gentry and Consignment by Eva Gentry are both are Atlantic Avenue staples \u2013 one offering edgy clothes from the likes of Dries Van Noten, Rick Owens and Ann Demeulemeester, and the other offering deals on designer and vintage consignment pieces. The boutiques are a few doors down from each other making it easy to visit in one go round.",
"author": "Simone S. Oliver",
"top-info": null,
"extra-info": "Women's",
"ticket-info": null,
"category": null,
"addresses": [
{
"venue": "Eva Gentry",
"foursquare-venue-id": null,
"website": "evagentry.com",
"phonenumber": "(718) 260-9033",
"crossstreet": "(between Hoyt and Bond Streets)",
"neighborhood": "Boerum Hill",
"street": "389 Atlantic Avenue",
"city": "Brooklyn",
"zip": "11217",
"state": "NY",
"latitude": "40.687193",
"longitude": "-73.985201"	}
,{
"venue": "Consignment by Eva Gentry",
"foursquare-venue-id": null,
"website": null,
"phonenumber": "(718) 522-3522",
"crossstreet": "(between Hoyt and Bond Streets)",
"neighborhood": "Boerum Hill",
"street": "371 Atlantic Avenue",
"city": "Brooklyn",
"zip":	"11217",
"state": "NY",
"latitude": "40.687473",
"longitude": "-73.985861"	}
],
"images":
null
}
,	{
"id": "8-60",
"archived": false,
"title": "Freeman\u2019s Sporting Club",
"created": "2010-11-18T07:53:49-0500",
"updated": "2010-11-22T07:05:04-0500",
"description": "This self-consciously un-self-conscious hipster boutique and barbershop resembles a retro-butch hunting lodge. Pick out a casual, stylish blazer while waiting for an old-fashioned shave.",
"author": "T Magazine",
"top-info": null,
"extra-info": "Men's",
"ticket-info": null,
"category": null,
"addresses": [
{
"venue": "Freeman\u2019s Sporting Club",
"foursquare-venue-id": null,
"website": "freemanssportingclub.com",
"phonenumber": "(212) 673-3209",
"crossstreet": "(between Bowery and Chrystie Street)",
"neighborhood": "Lower East Side",
"street": "8 Rivington Street",
"city": "New York",
"zip": "10002",
"state": "NY",
"latitude": "40.72147",
"longitude": "-73.992759"	}
],
"images":
null
}
,	{
"id": "8-61",
"archived": false,
"title": "Frock",
"created": "2010-11-18T07:54:00-0500",
"updated": "2010-11-22T07:05:04-0500",
"description": "Frock is a high-end vintage store that doesn\u2019t feel like a vintage store \u2014 no jumbled racks, no musty retro odors. Its stock is carefully edited so that nothing smacks of cutesiness or period costume. The clothes have a sophisticated and modern edge. Not surprisingly, tasteful restraint doesn\u2019t come cheap, and Frock\u2019s prices are sometimes steeper than average. But the designer clothes, selected for style, quality and condition, make a refreshing contrast to much of what passes for \u201Cvintage.\u2019\u2019",
"author": "Anita LeClerc",
"top-info": null,
"extra-info": "Women's",
"ticket-info": null,
"category": null,
"addresses": [
{
"venue": "Frock",
"foursquare-venue-id": null,
"website": "frocknyc.com",
"phonenumber": "(212)-594-5380",
"crossstreet": "(between Spring and Kenmare Streets)",
"neighborhood": "Nolita",
"street": "170 Elizabeth Street",
"city": "New York",
"zip": "10012",
"state": "NY",
"latitude": "40.720913",
"longitude": "-73.994806"	}
],
"images":
null
}
,	{
"id": "8-62",
"archived": false,
"title": "Gant Rugger Shop",
"created": "2010-11-18T07:54:14-0500",
"updated": "2010-11-22T07:05:04-0500",
"description": "This nouveau preppy\u2019s dream of a store has a great selection of the resurgent label\u2019s signature button-downs.",
"author": "T Magazine",
"top-info": null,
"extra-info": "Men's",
"ticket-info": null,
"category": null,
"addresses": [
{
"venue": "Gant Rugger Shop",
"foursquare-venue-id": null,
"website": "gant.com",
"phonenumber": "(212) 620-5949",
"crossstreet": "(between Charles and West 10th Streets)",
"neighborhood": "West Village",
"street": "353 Bleecker Street",
"city": "New York",
"zip": "10014",
"state": "NY",
"latitude": "40.734203",
"longitude": "-74.004583"	}
],
"images":
null
}
,	{
"id": "8-63",
"archived": false,
"title": "Hollander & Lexer",
"created": "2010-11-18T07:54:24-0500",
"updated": "2010-11-22T07:05:05-0500",
"description": "The owners of this dark store take a curatorial approach with a disparate mix of brand-name clothing, accessories and books.",
"author": "T Magazine",
"top-info": null,
"extra-info": "Men's",
"ticket-info": null,
"category": null,
"addresses": [
{
"venue": "Hollander & Lexer",
"foursquare-venue-id": null,
"website": "hollanderandlexer.net",
"phonenumber": "(718) 797-9190",
"crossstreet": "(between Hoyt and Bond Streets)",
"neighborhood": "Boerum Hill",
"street": "358 Atlantic Avenue",
"city": "Brooklyn",
"zip": "11217",
"state": "NY",
"latitude": "40.687505",
"longitude": "-73.986572"	}
],
"images":
null
}
,	{
"id": "8-64",
"archived": false,
"title": "Honey in the Rough",
"created": "2010-11-18T07:54:42-0500",
"updated": "2010-11-22T07:05:05-0500",
"description": "A high-end Lower East Side boutique that sells clothing, jewelry and makeup but is known mostly for its fabulous dresses.",
"author": "T Magazine",
"top-info": null,
"extra-info": "Women's",
"ticket-info": null,
"category": null,
"addresses": [
{
"venue": "Honey in the Rough",
"foursquare-venue-id": null,
"website": "honeyintherough.com",
"phonenumber": "(212) 228-6415",
"crossstreet": "(near Clinton Street)",
"neighborhood": "Lower East Side",
"street": "161 Rivington Street",
"city": "New York",
"zip": "10002",
"state": "NY",
"latitude": "40.71912",
"longitude": "-73.98533"	}
],
"images":
null
}
,	{
"id": "8-65",
"archived": false,
"title": "J. Crew Liquor Store",
"created": "2010-11-18T07:55:01-0500",
"updated": "2010-11-22T07:05:05-0500",
"description": "This Andy Spade-furbished J. Crew outpost is not your average mall chain. The brand\u2019s first store to sell men\u2019s wear exclusively is decked out in antique leather and authentic (looking) knick-knacks that recall a bygone era.",
"author": "T Magazine",
"top-info": null,
"extra-info": "Men's",
"ticket-info": null,
"category": null,
"addresses": [
{
"venue": "J. Crew Liquor Store",
"foursquare-venue-id": null,
"website": "jcrew.com",
"phonenumber": "(212) 226-5476",
"crossstreet": "(at White Street)",
"neighborhood": "TriBeCa",
"street": "235 West Broadway",
"city": "New York",
"zip": "10013",
"state": "NY",
"latitude": "40.719592",
"longitude": "-74.005999"	}
],
"images":
null
}
,	{
"id": "8-66",
"archived": false,
"title": "J. Press",
"created": "2010-11-18T07:55:06-0500",
"updated": "2010-11-22T07:05:05-0500",
"description": "Relive those Ivy League days at this New York City port of call for preppy, collegiate garb.",
"author": "T Magazine",
"top-info": null,
"extra-info": "Men's",
"ticket-info": null,
"category": null,
"addresses": [
{
"venue": "J. Press",
"foursquare-venue-id": null,
"website": "jpressonline.com",
"phonenumber": "(212) 687-7642",
"crossstreet": "(at East 47th Street)",
"neighborhood": "Midtown East",
"street": "380 Madison Avenue",
"city": "New York",
"zip": "10017",
"state": "NY",
"latitude": "40.755814",
"longitude": "-73.977149"	}
],
"images":
null
}
,	{
"id": "8-67",
"archived": false,
"title": "Kirna Zab\u00EAte",
"created": "2010-11-18T07:55:13-0500",
"updated": "2010-11-22T07:05:05-0500",
"description": "Serious clothing at this fun boutique, including Rick Owens, Lanvin, Celine. It's also a perfect place to find a special treat.",
"author": "T Magazine",
"top-info": null,
"extra-info": "Women's",
"ticket-info": null,
"category": null,
"addresses": [
{
"venue": "Kirna Zab\u00EAte",
"foursquare-venue-id": null,
"website": "kirnazabete.com",
"phonenumber": "(212) 941-9656",
"crossstreet": "(between Spring and Prince Streets)",
"neighborhood": "SoHo",
"street": "96 Greene Street",
"city": "New York",
"zip": "10012",
"state": "NY",
"latitude": "40.724322",
"longitude": "-73.999908"	}
],
"images":
null
}
,	{
"id": "8-68",
"archived": false,
"title": "Leffot",
"created": "2010-11-18T07:43:27-0500",
"updated": "2010-11-22T07:05:05-0500",
"description": "Fancy footwork is on show at this mecca for men who are serious about their shoes.",
"author": "T Magazine",
"top-info": null,
"extra-info": "Men's",
"ticket-info": null,
"category": null,
"addresses": [
{
"venue": "Leffot",
"foursquare-venue-id": null,
"website": "leffot.com",
"phonenumber": "(212) 989-4577",
"crossstreet": "(at Gay Street)",
"neighborhood": "West Village",
"street": "10 Christopher Street",
"city": "New York",
"zip": "10014",
"state": "NY",
"latitude": "40.733794",
"longitude": "-74.000283"	}
],
"images":
null
}
,	{
"id": "8-69",
"archived": false,
"title": "Ludivine",
"created": "2010-11-18T07:55:27-0500",
"updated": "2010-11-29T11:52:12-0500",
"description": "A piece of Paris in New York, this boutique sells hard-to-find European designers. Though the original location is in the West Village, Ludivine recently opened an Upper East Side outpost with a larger space and a wider selection of merchandise to match.",
"author": "T Magazine",
"top-info": null,
"extra-info": "Women's",
"ticket-info": null,
"category": null,
"addresses": [
{
"venue": "Ludivine",
"foursquare-venue-id": null,
"website": "boutiqueludivine.com",
"phonenumber": "(212) 249-4053",
"crossstreet": "(between East 82nd and 83rd Streets)",
"neighborhood": "Upper East Side",
"street": "1216 Lexington Avenue",
"city": "New York",
"zip": "10028",
"state": "NY",
"latitude": "40.777231",
"longitude": "-73.957378"	}
,{
"venue": "Ludivine",
"foursquare-venue-id": null,
"website": null,
"phonenumber": "(646) 336-6576",
"crossstreet": "(between Sixth and Seventh Avenues)",
"neighborhood": "West Village",
"street": "172 West Fourth Street",
"city": "New York",
"zip":	"10014",
"state": "NY",
"latitude": "40.732168",
"longitude": "-74.00164"	}
],
"images":
null
}
,	{
"id": "8-70",
"archived": false,
"title": "Maison Martin Margiela",
"created": "2010-11-18T07:43:29-0500",
"updated": "2010-11-22T07:05:05-0500",
"description": "The label\u2019s namesake designer has long flown the coop, but the white walls and studio lighting highlight this cerebral label\u2019s enduringly artful designs for men and women.",
"author": "T Magazine",
"top-info": null,
"extra-info": "Women's, Men's",
"ticket-info": null,
"category": null,
"addresses": [
{
"venue": "Maison Martin Margiela",
"foursquare-venue-id": null,
"website": "maisonmartinmargiela.com",
"phonenumber": "(212) 989-7612",
"crossstreet": "(between West 12th and Jane Streets)",
"neighborhood": "West Village",
"street": "803 Greenwich Street",
"city": "New York",
"zip": "10014",
"state": "NY",
"latitude": "40.737849",
"longitude": "-74.006425"	}
],
"images":
null
}
,	{
"id": "8-71",
"archived": false,
"title": "Maryam Nassir Zadeh",
"created": "2010-11-18T07:55:48-0500",
"updated": "2010-11-22T07:05:05-0500",
"description": "An eclectic mix of statement-making clothing, shoes and accessories by young designers.",
"author": "T Magazine",
"top-info": null,
"extra-info": "Women's",
"ticket-info": null,
"category": null,
"addresses": [
{
"venue": "Maryam Nassir Zadeh",
"foursquare-venue-id": null,
"website": "maryamnassirzadeh.com",
"phonenumber": "(212) 673-6405",
"crossstreet": "(at Rivington Street)",
"neighborhood": "Lower East Side",
"street": "123 Norfolk Street",
"city": "New York",
"zip": "10002",
"state": "NY",
"latitude": "40.719484",
"longitude": "-73.986867"	}
],
"images":
null
}
,	{
"id": "8-72",
"archived": false,
"title": "Mick Margo",
"created": "2010-11-18T07:55:54-0500",
"updated": "2010-11-22T07:05:05-0500",
"description": "This secluded little store carries clothing by international and local designers like J\u00E9r\u00F4me Dreyfuss, VPL and Rachel Comey. The prices are not inconsiderable, but the friendly staff makes for a pleasant shopping experience.",
"author": "T Magazine",
"top-info": null,
"extra-info": "Women's",
"ticket-info": null,
"category": null,
"addresses": [
{
"venue": "Mick Margo",
"foursquare-venue-id": null,
"website": "mickmargo.com",
"phonenumber": "(212) 463-0515",
"crossstreet": "(between Bedford Street and Seventh Avenue South)",
"neighborhood": "West Village",
"street": "19 Commerce Street",
"city": "New York",
"zip": "10014",
"state": "NY",
"latitude": "40.731748",
"longitude": "-74.004352"	}
],
"images":
null
}
,	{
"id": "8-73",
"archived": false,
"title": "Oak",
"created": "2010-11-18T07:56:02-0500",
"updated": "2010-11-22T07:05:05-0500",
"description": "Where downtown high-fashion goths fill their wardrobes with black, black and more black.",
"author": "T Magazine",
"top-info": null,
"extra-info": "Men's",
"ticket-info": null,
"category": null,
"addresses": [
{
"venue": "Oak",
"foursquare-venue-id": null,
"website": "oaknyc.com",
"phonenumber": "(212) 677-1293",
"crossstreet": "(between Lafayette and the Bowery)",
"neighborhood": "NoHo",
"street": "28 Bond Street",
"city": "New York",
"zip": "10012",
"state": "NY",
"latitude": "40.726434",
"longitude": "-73.993586"	}
,{
"venue": "Oak",
"foursquare-venue-id": null,
"website": null,
"phonenumber": "(718) 782-0521",
"crossstreet": "(between Roebling Street and Driggs Avenue)",
"neighborhood": "Williamsburg",
"street": "208 North Eighth Street",
"city": "New York",
"zip":	"11211",
"state": "NY",
"latitude": "40.717279",
"longitude": "-73.955478"	}
],
"images":
null
}
,	{
"id": "8-74",
"archived": false,
"title": "Odin",
"created": "2010-11-18T07:56:11-0500",
"updated": "2010-11-22T07:05:05-0500",
"description": "Signature fragrances are just one of the specialties of this New York boutique, whose main stock in trade at its three Manhattan locations is clothing by nouveau-preppy labels like Shipley & Halmos and Rag & Bone.",
"author": "T Magazine",
"top-info": null,
"extra-info": "Men's",
"ticket-info": null,
"category": null,
"addresses": [
{
"venue": "Odin",
"foursquare-venue-id": null,
"website": "odinnewyork.com",
"phonenumber": "(212) 966-0026",
"crossstreet": "(between Broome and Kenmare Streets)",
"neighborhood": "SoHo",
"street": "199 Lafayette Street",
"city": "New York",
"zip": "10012",
"state": "NY",
"latitude": "40.721295",
"longitude": "-73.998019"	}
,{
"venue": "Odin",
"foursquare-venue-id": null,
"website": null,
"phonenumber": "(212) 420-8446",
"crossstreet": "(at West 11th Street)",
"neighborhood": "West Village",
"street": "750 Greenwich Street",
"city": "New York",
"zip":	"10014",
"state": "NY",
"latitude": "40.73564",
"longitude": "-74.006946"	}
,{
"venue": "Odin",
"foursquare-venue-id": null,
"website": null,
"phonenumber": "(212) 475-0666",
"crossstreet": "(between First and Second Avenues)",
"neighborhood": "East Village",
"street": "328 East 11th Street",
"city": "New York",
"zip":	"10003",
"state": "NY",
"latitude": "40.729751",
"longitude": "-73.984957"	}
],
"images":
null
}
,	{
"id": "8-75",
"archived": false,
"title": "Opening Ceremony",
"created": "2010-11-18T07:56:22-0500",
"updated": "2010-11-22T07:05:05-0500",
"description": "This burgeoning mini empire started on Howard Street and is known for its tightly curated selection of unique wardrobe staples you never knew you needed (with cool accessories to match). Visit the store at the Ace Hotel for travel necessities, toiletries and kitschy souvenirs.",
"author": "T Magazine",
"top-info": null,
"extra-info": "Women's, Men's",
"ticket-info": null,
"category": null,
"addresses": [
{
"venue": "Opening Ceremony",
"foursquare-venue-id": null,
"website": "openingceremony.us",
"phonenumber": "(212) 219-2688",
"crossstreet": "(between Broadway and Crosby Street)",
"neighborhood": "Chinatown",
"street": "35 Howard Street",
"city": "New York",
"zip": "10013",
"state": "NY",
"latitude": "40.719679",
"longitude": "-74.000935"	}
,{
"venue": "Opening Ceremony",
"foursquare-venue-id": null,
"website": null,
"phonenumber": "(646) 695-5680",
"crossstreet": "(at West 29th Street)",
"neighborhood": "Midtown South",
"street": "1190-92 Broadway, in the Ace Hotel",
"city": "New York",
"zip":	"10001",
"state": "NY",
"latitude": "40.745827",
"longitude": "-73.988286"	}
],
"images":
null
}
,	{
"id": "8-76",
"archived": false,
"title": "Pas de Deux",
"created": "2010-11-18T07:56:42-0500",
"updated": "2010-11-22T07:05:05-0500",
"description": "This sister store to the men\u2019s wear favorite Odin captures the feeling of a Parisian boutique and has to-die-for accessories.",
"author": "T Magazine",
"top-info": null,
"extra-info": "Women's",
"ticket-info": null,
"category": null,
"addresses": [
{
"venue": "Pas de Deux",
"foursquare-venue-id": null,
"website": null,
"phonenumber": "(212) 475-0075",
"crossstreet": "(between First and Second Avenues)",
"neighborhood": "East Village",
"street": "328 East 11th Street",
"city": "New York",
"zip": "10003",
"state": "NY",
"latitude": "40.729751",
"longitude": "-73.984957"	}
],
"images":
null
}
,	{
"id": "8-77",
"archived": false,
"title": "Project No. 8",
"created": "2010-11-18T07:56:49-0500",
"updated": "2010-11-22T15:26:34-0500",
"description": "On-trend thinking person\u2019s wardrobe staples and well-priced novelty gifts for young moderns are on offer at these two Lower East Side spaces. The Division Street store sells women's clothing and the Orchard Street store sells men's.",
"author": "T Magazine",
"top-info": null,
"extra-info": "Women's, Men's",
"ticket-info": null,
"category": null,
"addresses": [
{
"venue": "Project No. 8",
"foursquare-venue-id": null,
"website": "projectno8.com",
"phonenumber": "(212) 925 4271",
"crossstreet": "(between Orchard and Ludlow Streets)",
"neighborhood": "Lower East Side",
"street": "138 Division Street",
"city": "New York",
"zip": "10002",
"state": "NY",
"latitude": "40.714507",
"longitude": "-73.991054"	}
,{
"venue": "Project No. 8b",
"foursquare-venue-id": null,
"website": null,
"phonenumber": "(212) 925-5599",
"crossstreet": "(at Hester Street)",
"neighborhood": "Lower East Side",
"street": "38 Orchard Street",
"city": "New York",
"zip":	"10002",
"state": "NY",
"latitude": "40.715924",
"longitude": "-73.991279"	}
],
"images":
null
}
,	{
"id": "8-78",
"archived": false,
"title": "Rag & Bone",
"created": "2010-11-18T07:57:03-0500",
"updated": "2010-11-22T07:05:06-0500",
"description": "In a rich irony, the award-winning sportswear label favored by the skinny set has a new location in the former Caf\u00E9 Colonial space. Sadly, no home delivery.",
"author": "T Magazine",
"top-info": null,
"extra-info": "Women's, Men's",
"ticket-info": null,
"category": null,
"addresses": [
{
"venue": "Rag & Bone",
"foursquare-venue-id": null,
"website": "rag-bone.com",
"phonenumber": "(212) 219-2204",
"crossstreet": "(between Prince and Spring Streets)",
"neighborhood": "West Village",
"street": "119 Mercer Street",
"city": "New York",
"zip": "10012",
"state": "NY",
"latitude": "40.733292",
"longitude": "-74.004867"	}
],
"images":
null
}
,	{
"id": "8-79",
"archived": false,
"title": "Save Khaki",
"created": "2010-11-18T07:57:12-0500",
"updated": "2010-11-22T07:05:06-0500",
"description": "Don\u2019t be fooled, this boutique sells affordable basics in a variety of wearable neutral tones.",
"author": "T Magazine",
"top-info": null,
"extra-info": "Men's",
"ticket-info": null,
"category": null,
"addresses": [
{
"venue": "Save Khaki",
"foursquare-venue-id": null,
"website": "savekhaki.com",
"phonenumber": "(212) 925-0134",
"crossstreet": "(between Houston and Bleecker Streets)",
"neighborhood": "NoHo",
"street": "327 Lafayette Street",
"city": "New York",
"zip": "10012",
"state": "NY",
"latitude": "40.725542",
"longitude": "-73.994945"	}
],
"images":
null
}
,	{
"id": "8-80",
"archived": false,
"title": "Seize Sur Vingt",
"created": "2010-11-18T07:57:17-0500",
"updated": "2010-11-22T07:05:06-0500",
"description": "The young, rich and hip buy their custom shirts at this ever-popular boutique.",
"author": "T Magazine",
"top-info": null,
"extra-info": "Men's",
"ticket-info": null,
"category": null,
"addresses": [
{
"venue": "Seize Sur Vingt",
"foursquare-venue-id": null,
"website": "16sur20.com",
"phonenumber": "(212) 625-1620",
"crossstreet": "(between Spring and Broome Streets)",
"neighborhood": "SoHo",
"street": "78 Greene Street",
"city": "New York",
"zip": "10012",
"state": "NY",
"latitude": "40.723475",
"longitude": "-74.000621"	}
],
"images":
null
}
,	{
"id": "8-81",
"archived": false,
"title": "Supreme",
"created": "2010-11-18T07:57:29-0500",
"updated": "2010-11-22T07:05:06-0500",
"description": "This skate shop is the New York City ne plus ultra for street wear.",
"author": "T Magazine",
"top-info": null,
"extra-info": "Men's",
"ticket-info": null,
"category": null,
"addresses": [
{
"venue": "Supreme",
"foursquare-venue-id": null,
"website": "supremenewyork.com",
"phonenumber": "(212) 966-7799",
"crossstreet": "(between Prince and Jersey Streets)",
"neighborhood": "SoHo",
"street": "274 Lafayette Street",
"city": "New York",
"zip": "10012",
"state": "NY",
"latitude": "40.72392",
"longitude": "-73.996343"	}
],
"images":
null
}
,	{
"id": "8-83",
"archived": false,
"title": "Thistle & Clover",
"created": "2010-11-18T07:43:42-0500",
"updated": "2010-11-22T07:05:06-0500",
"description": "The allure of this boutique is its selection of feminine frocks, blouses and skirts, all from emerging designers. The co-founders Camilla Gale and Rand Niederhoffer have created a sanctuary full of garments you won't see on everyone else, including an array of dainty accessories from necklaces to headbands.",
"author": "Simone S. Oliver",
"top-info": null,
"extra-info": "Women's",
"ticket-info": null,
"category": null,
"addresses": [
{
"venue": "Thistle & Clover",
"foursquare-venue-id": null,
"website": "thistleclover.com",
"phonenumber": "(718) 855-5577",
"crossstreet": "(between Adelphi Street and Clermont Avenue)",
"neighborhood": "Fort Greene",
"street": "221 DeKalb Avenue",
"city": "Brooklyn",
"zip": "11205",
"state": "NY",
"latitude": "40.689539",
"longitude": "-73.970634"	}
],
"images":
null
}
,	{
"id": "8-84",
"archived": false,
"title": "Zero + Maria Cornejo",
"created": "2010-11-18T07:57:47-0500",
"updated": "2010-11-22T07:05:06-0500",
"description": "With West Village and NoHo locations, Zero\u2019s Maria Cornejo rules the downtown fashion scene. Her sparse boutiques are a haven for cerebral celebrities and fashion editors looking for wardrobe staples with an edge.",
"author": "T Magazine",
"top-info": null,
"extra-info": "Women's",
"ticket-info": null,
"category": null,
"addresses": [
{
"venue": "Zero + Maria Cornejo",
"foursquare-venue-id": null,
"website": "zeromariacornejo.com",
"phonenumber": "(212) 620-0460",
"crossstreet": "(at Jane Street)",
"neighborhood": "West Village",
"street": "807 Greenwich Street",
"city": "New York",
"zip": "10014",
"state": "NY",
"latitude": "40.738076",
"longitude": "-74.006398"	}
,{
"venue": "Zero + Maria Cornejo",
"foursquare-venue-id": null,
"website": null,
"phonenumber": "(212) 925-3849",
"crossstreet": "(between Bowery and Lafayette Street)",
"neighborhood": "NoHo",
"street": "33 Bleecker Street",
"city": "New York",
"zip":	"10012",
"state": "NY",
"latitude": "40.725737",
"longitude": "-73.993797"	}
],
"images":
null
}
]
}
}